{
"type": "FeatureCollection",
"name": "regional_stations",
"crs": { "type": "name", "properties": { "name": "urn:ogc:def:crs:OGC:1.3:CRS84" } },
"features": [
{ "type": "Feature", "properties": { "STOP_ID": "17204", "LATITUDE": -37.416861, "STOP_NAME": "Wallan Railway Station (Wallan)", "LONGITUDE": 145.005372 }, "geometry": { "type": "Point", "coordinates": [ 145.00537800013231, -37.416847836241466 ] } },
{ "type": "Feature", "properties": { "STOP_ID": "19980", "LATITUDE": -37.703359, "STOP_NAME": "Melton Railway Station (Melton South)", "LONGITUDE": 144.572216 }, "geometry": { "type": "Point", "coordinates": [ 144.572222077960902, -37.703345801369686 ] } },
{ "type": "Feature", "properties": { "STOP_ID": "19981", "LATITUDE": -37.729261, "STOP_NAME": "Rockbank Railway Station (Rockbank)", "LONGITUDE": 144.650631 }, "geometry": { "type": "Point", "coordinates": [ 144.650636880468198, -37.729247809848488 ] } },
{ "type": "Feature", "properties": { "STOP_ID": "19982", "LATITUDE": -37.777764, "STOP_NAME": "Deer Park Railway Station (Deer Park)", "LONGITUDE": 144.772304 }, "geometry": { "type": "Point", "coordinates": [ 144.772310019552947, -37.77775079157427 ] } },
{ "type": "Feature", "properties": { "STOP_ID": "19998", "LATITUDE": -37.579206, "STOP_NAME": "Sunbury Railway Station (Sunbury)", "LONGITUDE": 144.728165 }, "geometry": { "type": "Point", "coordinates": [ 144.728171197614756, -37.579192791975274 ] } },
{ "type": "Feature", "properties": { "STOP_ID": "20020", "LATITUDE": -37.783065, "STOP_NAME": "Ardeer Railway Station (Ardeer)", "LONGITUDE": 144.802188 }, "geometry": { "type": "Point", "coordinates": [ 144.802193985283168, -37.783051794587244 ] } },
{ "type": "Feature", "properties": { "STOP_ID": "20029", "LATITUDE": -37.601925, "STOP_NAME": "Craigieburn Railway Station (Craigieburn)", "LONGITUDE": 144.943306 }, "geometry": { "type": "Point", "coordinates": [ 144.943311817919096, -37.601911862324542 ] } },
{ "type": "Feature", "properties": { "STOP_ID": "20043", "LATITUDE": -37.818334, "STOP_NAME": "Southern Cross Railway Station (Melbourne City)", "LONGITUDE": 144.952525 }, "geometry": { "type": "Point", "coordinates": [ 144.95253102596061, -37.81832083019102 ] } },
{ "type": "Feature", "properties": { "STOP_ID": "20287", "LATITUDE": -36.084262, "STOP_NAME": "Albury Railway Station (Albury (NSW))", "LONGITUDE": 146.924515 }, "geometry": { "type": "Point", "coordinates": [ 146.924520836629426, -36.08424935260517 ] } },
{ "type": "Feature", "properties": { "STOP_ID": "20288", "LATITUDE": -37.282205, "STOP_NAME": "Ararat Railway Station (Ararat)", "LONGITUDE": 142.936914 }, "geometry": { "type": "Point", "coordinates": [ 142.936920217605632, -37.282191718257636 ] } },
{ "type": "Feature", "properties": { "STOP_ID": "20289", "LATITUDE": -36.893648, "STOP_NAME": "Avenel Railway Station (Avenel)", "LONGITUDE": 145.229515 }, "geometry": { "type": "Point", "coordinates": [ 145.229520851868699, -36.893634828946865 ] } },
{ "type": "Feature", "properties": { "STOP_ID": "20290", "LATITUDE": -37.687517, "STOP_NAME": "Bacchus Marsh Railway Station (Maddingley)", "LONGITUDE": 144.436855 }, "geometry": { "type": "Point", "coordinates": [ 144.436861020628101, -37.687503815698165 ] } },
{ "type": "Feature", "properties": { "STOP_ID": "20291", "LATITUDE": -37.82872, "STOP_NAME": "Bairnsdale Railway Station (Bairnsdale)", "LONGITUDE": 147.627614 }, "geometry": { "type": "Point", "coordinates": [ 147.627619640420335, -37.828707032065743 ] } },
{ "type": "Feature", "properties": { "STOP_ID": "20292", "LATITUDE": -37.6043, "STOP_NAME": "Ballan Railway Station (Ballan)", "LONGITUDE": 144.225448 }, "geometry": { "type": "Point", "coordinates": [ 144.225453939807693, -37.604286829605741 ] } },
{ "type": "Feature", "properties": { "STOP_ID": "20293", "LATITUDE": -37.558791, "STOP_NAME": "Ballarat Railway Station (Ballarat Central)", "LONGITUDE": 143.859457 }, "geometry": { "type": "Point", "coordinates": [ 143.859463257861819, -37.558777765885239 ] } },
{ "type": "Feature", "properties": { "STOP_ID": "20294", "LATITUDE": -37.427875, "STOP_NAME": "Beaufort Railway Station (Beaufort)", "LONGITUDE": 143.382234 }, "geometry": { "type": "Point", "coordinates": [ 143.382240112939769, -37.427861759154737 ] } },
{ "type": "Feature", "properties": { "STOP_ID": "20295", "LATITUDE": -36.54455, "STOP_NAME": "Benalla Railway Station (Benalla)", "LONGITUDE": 145.983915 }, "geometry": { "type": "Point", "coordinates": [ 145.983920953578235, -36.544536938689667 ] } },
{ "type": "Feature", "properties": { "STOP_ID": "20296", "LATITUDE": -36.76567, "STOP_NAME": "Bendigo Railway Station (Bendigo)", "LONGITUDE": 144.283009 }, "geometry": { "type": "Point", "coordinates": [ 144.283015130188005, -36.765656744356299 ] } },
{ "type": "Feature", "properties": { "STOP_ID": "20297", "LATITUDE": -38.328808, "STOP_NAME": "Birregurra Railway Station (Birregurra)", "LONGITUDE": 143.783625 }, "geometry": { "type": "Point", "coordinates": [ 143.783631017935932, -38.328794707051671 ] } },
{ "type": "Feature", "properties": { "STOP_ID": "20298", "LATITUDE": -37.2072, "STOP_NAME": "Broadford Railway Station (Broadford)", "LONGITUDE": 145.043008 }, "geometry": { "type": "Point", "coordinates": [ 145.043013852508693, -37.20718680323305 ] } },
{ "type": "Feature", "properties": { "STOP_ID": "20299", "LATITUDE": -38.099108, "STOP_NAME": "Bunyip Railway Station (Bunyip)", "LONGITUDE": 145.720757 }, "geometry": { "type": "Point", "coordinates": [ 145.720762959806791, -38.099094875049111 ] } },
{ "type": "Feature", "properties": { "STOP_ID": "20300", "LATITUDE": -38.228901, "STOP_NAME": "Camperdown Railway Station (Camperdown)", "LONGITUDE": 143.150928 }, "geometry": { "type": "Point", "coordinates": [ 143.150934358938798, -38.228887761365066 ] } },
{ "type": "Feature", "properties": { "STOP_ID": "20301", "LATITUDE": -37.062837, "STOP_NAME": "Castlemaine Railway Station (Castlemaine)", "LONGITUDE": 144.213799 }, "geometry": { "type": "Point", "coordinates": [ 144.213805118689265, -37.06282378378144 ] } },
{ "type": "Feature", "properties": { "STOP_ID": "20302", "LATITUDE": -36.155637, "STOP_NAME": "Chiltern Railway Station (Chiltern)", "LONGITUDE": 146.611375 }, "geometry": { "type": "Point", "coordinates": [ 146.611380708136721, -36.155623955779348 ] } },
{ "type": "Feature", "properties": { "STOP_ID": "20303", "LATITUDE": -37.483498, "STOP_NAME": "Clarkefield Railway Station (Clarkefield)", "LONGITUDE": 144.745373 }, "geometry": { "type": "Point", "coordinates": [ 144.745379206776306, -37.483484812684985 ] } },
{ "type": "Feature", "properties": { "STOP_ID": "20304", "LATITUDE": -38.343378, "STOP_NAME": "Colac Railway Station (Colac)", "LONGITUDE": 143.586653 }, "geometry": { "type": "Point", "coordinates": [ 143.586659177125824, -38.343364730086641 ] } },
{ "type": "Feature", "properties": { "STOP_ID": "20305", "LATITUDE": -38.072831, "STOP_NAME": "Corio Railway Station (Corio)", "LONGITUDE": 144.379768 }, "geometry": { "type": "Point", "coordinates": [ 144.379774020583056, -38.072817844455585 ] } },
{ "type": "Feature", "properties": { "STOP_ID": "20306", "LATITUDE": -36.369233, "STOP_NAME": "Dingee Railway Station (Dingee)", "LONGITUDE": 144.23112 }, "geometry": { "type": "Point", "coordinates": [ 144.231126239615833, -36.369219786195295 ] } },
{ "type": "Feature", "properties": { "STOP_ID": "20307", "LATITUDE": -37.542575, "STOP_NAME": "Donnybrook Railway Station (Donnybrook)", "LONGITUDE": 144.969555 }, "geometry": { "type": "Point", "coordinates": [ 144.969560879095468, -37.542561816384655 ] } },
{ "type": "Feature", "properties": { "STOP_ID": "20308", "LATITUDE": -38.136452, "STOP_NAME": "Drouin Railway Station (Drouin)", "LONGITUDE": 145.855947 }, "geometry": { "type": "Point", "coordinates": [ 145.855952660387118, -38.136438943300497 ] } },
{ "type": "Feature", "properties": { "STOP_ID": "20309", "LATITUDE": -36.718525, "STOP_NAME": "Eaglehawk Railway Station (Eaglehawk)", "LONGITUDE": 144.24838 }, "geometry": { "type": "Point", "coordinates": [ 144.248386013577147, -36.718511770403168 ] } },
{ "type": "Feature", "properties": { "STOP_ID": "20310", "LATITUDE": -36.130982, "STOP_NAME": "Echuca Railway Station (Echuca)", "LONGITUDE": 144.753459 }, "geometry": { "type": "Point", "coordinates": [ 144.753465296215495, -36.130968874180034 ] } },
{ "type": "Feature", "properties": { "STOP_ID": "20311", "LATITUDE": -36.49502, "STOP_NAME": "Elmore Railway Station (Elmore)", "LONGITUDE": 144.607758 }, "geometry": { "type": "Point", "coordinates": [ 144.607764258217088, -36.495006783248023 ] } },
{ "type": "Feature", "properties": { "STOP_ID": "20312", "LATITUDE": -36.749131, "STOP_NAME": "Euroa Railway Station (Euroa)", "LONGITUDE": 145.568089 }, "geometry": { "type": "Point", "coordinates": [ 145.5680950365863, -36.749117889507765 ] } },
{ "type": "Feature", "properties": { "STOP_ID": "20313", "LATITUDE": -38.091031, "STOP_NAME": "Garfield Railway Station (Garfield)", "LONGITUDE": 145.674225 }, "geometry": { "type": "Point", "coordinates": [ 145.674230799960867, -38.091017908067144 ] } },
{ "type": "Feature", "properties": { "STOP_ID": "20314", "LATITUDE": -38.144242, "STOP_NAME": "Geelong Railway Station (Geelong)", "LONGITUDE": 144.354989 }, "geometry": { "type": "Point", "coordinates": [ 144.354995191592792, -38.144228791003826 ] } },
{ "type": "Feature", "properties": { "STOP_ID": "20315", "LATITUDE": -37.458825, "STOP_NAME": "Gisborne Railway Station (New Gisborne)", "LONGITUDE": 144.598722 }, "geometry": { "type": "Point", "coordinates": [ 144.598728144534647, -37.458811843854193 ] } },
{ "type": "Feature", "properties": { "STOP_ID": "20316", "LATITUDE": -37.371713, "STOP_NAME": "Heathcote Junction Railway Station (Heathcote Junction)", "LONGITUDE": 145.028205 }, "geometry": { "type": "Point", "coordinates": [ 145.028210986894265, -37.371699874682541 ] } },
{ "type": "Feature", "properties": { "STOP_ID": "20317", "LATITUDE": -36.794834, "STOP_NAME": "Kangaroo Flat Railway Station (Kangaroo Flat)", "LONGITUDE": 144.24899 }, "geometry": { "type": "Point", "coordinates": [ 144.248996219276137, -36.794820790133159 ] } },
{ "type": "Feature", "properties": { "STOP_ID": "20318", "LATITUDE": -35.733122, "STOP_NAME": "Kerang Railway Station (Kerang)", "LONGITUDE": 143.924425 }, "geometry": { "type": "Point", "coordinates": [ 143.924431176148659, -35.733108765997287 ] } },
{ "type": "Feature", "properties": { "STOP_ID": "20319", "LATITUDE": -37.29321, "STOP_NAME": "Kilmore East Railway Station (Kilmore East)", "LONGITUDE": 144.983566 }, "geometry": { "type": "Point", "coordinates": [ 144.983572103681269, -37.293196834213404 ] } },
{ "type": "Feature", "properties": { "STOP_ID": "20320", "LATITUDE": -37.258279, "STOP_NAME": "Kyneton Railway Station (Kyneton)", "LONGITUDE": 144.450602 }, "geometry": { "type": "Point", "coordinates": [ 144.450608020136343, -37.258265819643981 ] } },
{ "type": "Feature", "properties": { "STOP_ID": "20321", "LATITUDE": -38.022428, "STOP_NAME": "Lara Railway Station (Lara)", "LONGITUDE": 144.414404 }, "geometry": { "type": "Point", "coordinates": [ 144.414409969480175, -38.022414784859301 ] } },
{ "type": "Feature", "properties": { "STOP_ID": "20323", "LATITUDE": -37.962929, "STOP_NAME": "Little River Railway Station (Little River)", "LONGITUDE": 144.498485 }, "geometry": { "type": "Point", "coordinates": [ 144.498491163330215, -37.962915792125742 ] } },
{ "type": "Feature", "properties": { "STOP_ID": "20324", "LATITUDE": -38.110992, "STOP_NAME": "Longwarry Railway Station (Longwarry)", "LONGITUDE": 145.76686 }, "geometry": { "type": "Point", "coordinates": [ 145.766865633957593, -38.110978925465488 ] } },
{ "type": "Feature", "properties": { "STOP_ID": "20325", "LATITUDE": -37.423573, "STOP_NAME": "Macedon Railway Station (Macedon)", "LONGITUDE": 144.561397 }, "geometry": { "type": "Point", "coordinates": [ 144.561403004480667, -37.423559832217414 ] } },
{ "type": "Feature", "properties": { "STOP_ID": "20326", "LATITUDE": -37.18974, "STOP_NAME": "Malmsbury Railway Station (Malmsbury)", "LONGITUDE": 144.375323 }, "geometry": { "type": "Point", "coordinates": [ 144.375329157035651, -37.189726764763662 ] } },
{ "type": "Feature", "properties": { "STOP_ID": "20327", "LATITUDE": -38.198549, "STOP_NAME": "Marshall Railway Station (Marshall)", "LONGITUDE": 144.355057 }, "geometry": { "type": "Point", "coordinates": [ 144.355062863905772, -38.19853577964814 ] } },
{ "type": "Feature", "properties": { "STOP_ID": "20328", "LATITUDE": -38.176909, "STOP_NAME": "Moe Railway Station (Moe)", "LONGITUDE": 146.260572 }, "geometry": { "type": "Point", "coordinates": [ 146.260577811946604, -38.176895952845172 ] } },
{ "type": "Feature", "properties": { "STOP_ID": "20329", "LATITUDE": -36.399128, "STOP_NAME": "Mooroopna Railway Station (Mooroopna)", "LONGITUDE": 145.358215 }, "geometry": { "type": "Point", "coordinates": [ 145.35822086590656, -36.399114891930729 ] } },
{ "type": "Feature", "properties": { "STOP_ID": "20330", "LATITUDE": -38.236719, "STOP_NAME": "Morwell Railway Station (Morwell)", "LONGITUDE": 146.396753 }, "geometry": { "type": "Point", "coordinates": [ 146.396758583966175, -38.236705914538575 ] } },
{ "type": "Feature", "properties": { "STOP_ID": "20331", "LATITUDE": -36.613148, "STOP_NAME": "Murchison East Railway Station (Murchison East)", "LONGITUDE": 145.240636 }, "geometry": { "type": "Point", "coordinates": [ 145.240641972831725, -36.613134882213409 ] } },
{ "type": "Feature", "properties": { "STOP_ID": "20332", "LATITUDE": -36.785464, "STOP_NAME": "Nagambie Railway Station (Nagambie)", "LONGITUDE": 145.160357 }, "geometry": { "type": "Point", "coordinates": [ 145.160363065307251, -36.785450868389923 ] } },
{ "type": "Feature", "properties": { "STOP_ID": "20333", "LATITUDE": -38.081592, "STOP_NAME": "Nar Nar Goon Railway Station (Nar Nar Goon)", "LONGITUDE": 145.571666 }, "geometry": { "type": "Point", "coordinates": [ 145.571671853460657, -38.081578882142118 ] } },
{ "type": "Feature", "properties": { "STOP_ID": "20334", "LATITUDE": -38.122835, "STOP_NAME": "North Geelong Railway Station (North Geelong)", "LONGITUDE": 144.352272 }, "geometry": { "type": "Point", "coordinates": [ 144.35227790438833, -38.122821843489184 ] } },
{ "type": "Feature", "properties": { "STOP_ID": "20335", "LATITUDE": -38.098377, "STOP_NAME": "North Shore Railway Station (North Shore)", "LONGITUDE": 144.365321 }, "geometry": { "type": "Point", "coordinates": [ 144.365327199055827, -38.098363802248102 ] } },
{ "type": "Feature", "properties": { "STOP_ID": "20336", "LATITUDE": -36.053113, "STOP_NAME": "Pyramid Railway Station (Pyramid Hill)", "LONGITUDE": 144.113133 }, "geometry": { "type": "Point", "coordinates": [ 144.113139226447714, -36.053099782840405 ] } },
{ "type": "Feature", "properties": { "STOP_ID": "20337", "LATITUDE": -37.465124, "STOP_NAME": "Riddells Creek Railway Station (Riddells Creek)", "LONGITUDE": 144.679831 }, "geometry": { "type": "Point", "coordinates": [ 144.679836887571071, -37.465110856993427 ] } },
{ "type": "Feature", "properties": { "STOP_ID": "20338", "LATITUDE": -36.36236, "STOP_NAME": "Rochester Railway Station (Rochester)", "LONGITUDE": 144.698681 }, "geometry": { "type": "Point", "coordinates": [ 144.69868730706628, -36.362346808973676 ] } },
{ "type": "Feature", "properties": { "STOP_ID": "20339", "LATITUDE": -38.156404, "STOP_NAME": "Rosedale Railway Station (Rosedale)", "LONGITUDE": 146.786966 }, "geometry": { "type": "Point", "coordinates": [ 146.786971516786707, -38.156390934054023 ] } },
{ "type": "Feature", "properties": { "STOP_ID": "20341", "LATITUDE": -38.103103, "STOP_NAME": "Sale Railway Station (Sale)", "LONGITUDE": 147.054805 }, "geometry": { "type": "Point", "coordinates": [ 147.054810356330108, -38.103089997333797 ] } },
{ "type": "Feature", "properties": { "STOP_ID": "20342", "LATITUDE": -37.024729, "STOP_NAME": "Seymour Railway Station (Seymour)", "LONGITUDE": 145.137729 }, "geometry": { "type": "Point", "coordinates": [ 145.13773489502745, -37.02471585627088 ] } },
{ "type": "Feature", "properties": { "STOP_ID": "20343", "LATITUDE": -36.383791, "STOP_NAME": "Shepparton Railway Station (Shepparton)", "LONGITUDE": 145.406497 }, "geometry": { "type": "Point", "coordinates": [ 145.406503007655857, -36.383777831849088 ] } },
{ "type": "Feature", "properties": { "STOP_ID": "20344", "LATITUDE": -38.158659, "STOP_NAME": "South Geelong Railway Station (South Geelong)", "LONGITUDE": 144.358987 }, "geometry": { "type": "Point", "coordinates": [ 144.358993000374596, -38.158645802316137 ] } },
{ "type": "Feature", "properties": { "STOP_ID": "20345", "LATITUDE": -36.185893, "STOP_NAME": "Springhurst Railway Station (Springhurst)", "LONGITUDE": 146.470417 }, "geometry": { "type": "Point", "coordinates": [ 146.470422731983064, -36.185879952617128 ] } },
{ "type": "Feature", "properties": { "STOP_ID": "20346", "LATITUDE": -37.967047, "STOP_NAME": "Stratford Railway Station (Stratford)", "LONGITUDE": 147.081469 }, "geometry": { "type": "Point", "coordinates": [ 147.081474499913924, -37.967034024209127 ] } },
{ "type": "Feature", "properties": { "STOP_ID": "20347", "LATITUDE": -35.341114, "STOP_NAME": "Swan Hill Railway Station (Swan Hill)", "LONGITUDE": 143.562343 }, "geometry": { "type": "Point", "coordinates": [ 143.562349323677637, -35.341100705608895 ] } },
{ "type": "Feature", "properties": { "STOP_ID": "20348", "LATITUDE": -37.092335, "STOP_NAME": "Tallarook Railway Station (Tallarook)", "LONGITUDE": 145.102997 }, "geometry": { "type": "Point", "coordinates": [ 145.10300316756215, -37.092321876701597 ] } },
{ "type": "Feature", "properties": { "STOP_ID": "20349", "LATITUDE": -38.236212, "STOP_NAME": "Terang Railway Station (Terang)", "LONGITUDE": 142.911472 }, "geometry": { "type": "Point", "coordinates": [ 142.91147823471087, -38.236198719363607 ] } },
{ "type": "Feature", "properties": { "STOP_ID": "20350", "LATITUDE": -38.207242, "STOP_NAME": "Trafalgar Railway Station (Trafalgar)", "LONGITUDE": 146.154773 }, "geometry": { "type": "Point", "coordinates": [ 146.154778859656176, -38.207228915452177 ] } },
{ "type": "Feature", "properties": { "STOP_ID": "20351", "LATITUDE": -38.198885, "STOP_NAME": "Traralgon Railway Station (Traralgon)", "LONGITUDE": 146.537882 }, "geometry": { "type": "Point", "coordinates": [ 146.537887542092278, -38.198871993246449 ] } },
{ "type": "Feature", "properties": { "STOP_ID": "20352", "LATITUDE": -38.084996, "STOP_NAME": "Tynong Railway Station (Tynong)", "LONGITUDE": 145.628234 }, "geometry": { "type": "Point", "coordinates": [ 145.628239719639168, -38.084982863732698 ] } },
{ "type": "Feature", "properties": { "STOP_ID": "20353", "LATITUDE": -36.638816, "STOP_NAME": "Violet Town Railway Station (Violet Town)", "LONGITUDE": 145.715923 }, "geometry": { "type": "Point", "coordinates": [ 145.715929038255098, -36.638802920233196 ] } },
{ "type": "Feature", "properties": { "STOP_ID": "20355", "LATITUDE": -37.354677, "STOP_NAME": "Wandong Railway Station (Wandong)", "LONGITUDE": 145.026415 }, "geometry": { "type": "Point", "coordinates": [ 145.026421062025094, -37.354663867192961 ] } },
{ "type": "Feature", "properties": { "STOP_ID": "20356", "LATITUDE": -36.355101, "STOP_NAME": "Wangaratta Railway Station (Wangaratta)", "LONGITUDE": 146.317038 }, "geometry": { "type": "Point", "coordinates": [ 146.317044018199056, -36.355087969303185 ] } },
{ "type": "Feature", "properties": { "STOP_ID": "20357", "LATITUDE": -38.165229, "STOP_NAME": "Warragul Railway Station (Warragul)", "LONGITUDE": 145.932674 }, "geometry": { "type": "Point", "coordinates": [ 145.932679780563547, -38.165215909218873 ] } },
{ "type": "Feature", "properties": { "STOP_ID": "20358", "LATITUDE": -38.385014, "STOP_NAME": "Warrnambool Railway Station (Warrnambool)", "LONGITUDE": 142.475545 }, "geometry": { "type": "Point", "coordinates": [ 142.4755514390352, -38.385000738020125 ] } },
{ "type": "Feature", "properties": { "STOP_ID": "20359", "LATITUDE": -38.240135, "STOP_NAME": "Winchelsea Railway Station (Winchelsea)", "LONGITUDE": 143.984134 }, "geometry": { "type": "Point", "coordinates": [ 143.98414016295925, -38.240121735037285 ] } },
{ "type": "Feature", "properties": { "STOP_ID": "20360", "LATITUDE": -36.105827, "STOP_NAME": "Wodonga Railway Station (Wodonga)", "LONGITUDE": 146.871266 }, "geometry": { "type": "Point", "coordinates": [ 146.871271712536441, -36.10581403400063 ] } },
{ "type": "Feature", "properties": { "STOP_ID": "20361", "LATITUDE": -37.358799, "STOP_NAME": "Woodend Railway Station (Woodend)", "LONGITUDE": 144.52589 }, "geometry": { "type": "Point", "coordinates": [ 144.525896251261287, -37.358785832291794 ] } },
{ "type": "Feature", "properties": { "STOP_ID": "20362", "LATITUDE": -38.203158, "STOP_NAME": "Yarragon Railway Station (Yarragon)", "LONGITUDE": 146.063063 }, "geometry": { "type": "Point", "coordinates": [ 146.063068882055376, -38.203144892567849 ] } },
{ "type": "Feature", "properties": { "STOP_ID": "20616", "LATITUDE": -36.332222, "STOP_NAME": "Nhill Railway Station (Nhill)", "LONGITUDE": 141.65389 }, "geometry": { "type": "Point", "coordinates": [ 141.653896690668631, -36.332208684333388 ] } },
{ "type": "Feature", "properties": { "STOP_ID": "20617", "LATITUDE": -36.45418, "STOP_NAME": "Dimboola Railway Station (Dimboola)", "LONGITUDE": 142.032464 }, "geometry": { "type": "Point", "coordinates": [ 142.032470463534764, -36.454166629022723 ] } },
{ "type": "Feature", "properties": { "STOP_ID": "20618", "LATITUDE": -36.707501, "STOP_NAME": "Horsham Railway Station (Horsham)", "LONGITUDE": 142.200555 }, "geometry": { "type": "Point", "coordinates": [ 142.200561637426262, -36.707487662471152 ] } },
{ "type": "Feature", "properties": { "STOP_ID": "22238", "LATITUDE": -37.818305, "STOP_NAME": "Flinders Street Railway Station (Melbourne City)", "LONGITUDE": 144.966964 }, "geometry": { "type": "Point", "coordinates": [ 144.96696993215096, -37.818291850759209 ] } },
{ "type": "Feature", "properties": { "STOP_ID": "22239", "LATITUDE": -37.80631, "STOP_NAME": "North Melbourne Railway Station (West Melbourne)", "LONGITUDE": 144.94151 }, "geometry": { "type": "Point", "coordinates": [ 144.941516132490079, -37.806296829600655 ] } },
{ "type": "Feature", "properties": { "STOP_ID": "22240", "LATITUDE": -37.801413, "STOP_NAME": "Footscray Railway Station (Footscray)", "LONGITUDE": 144.90202 }, "geometry": { "type": "Point", "coordinates": [ 144.902025889846385, -37.801399836661652 ] } },
{ "type": "Feature", "properties": { "STOP_ID": "22241", "LATITUDE": -37.788536, "STOP_NAME": "Sunshine Railway Station (Sunshine)", "LONGITUDE": 144.832878 }, "geometry": { "type": "Point", "coordinates": [ 144.832883999017184, -37.788522809420797 ] } },
{ "type": "Feature", "properties": { "STOP_ID": "22244", "LATITUDE": -37.701129, "STOP_NAME": "Watergardens Railway Station (Sydenham)", "LONGITUDE": 144.77418 }, "geometry": { "type": "Point", "coordinates": [ 144.77418599996335, -37.701115792063433 ] } },
{ "type": "Feature", "properties": { "STOP_ID": "22247", "LATITUDE": -37.824074, "STOP_NAME": "Richmond Railway Station (Richmond)", "LONGITUDE": 144.990164 }, "geometry": { "type": "Point", "coordinates": [ 144.990170111513493, -37.82406085318307 ] } },
{ "type": "Feature", "properties": { "STOP_ID": "22248", "LATITUDE": -37.877459, "STOP_NAME": "Caulfield Railway Station (Caulfield East)", "LONGITUDE": 145.042525 }, "geometry": { "type": "Point", "coordinates": [ 145.04253102653945, -37.877445892752384 ] } },
{ "type": "Feature", "properties": { "STOP_ID": "22249", "LATITUDE": -37.924683, "STOP_NAME": "Clayton Railway Station (Clayton)", "LONGITUDE": 145.120534 }, "geometry": { "type": "Point", "coordinates": [ 145.120539767406967, -37.924669883779288 ] } },
{ "type": "Feature", "properties": { "STOP_ID": "22250", "LATITUDE": -37.989968, "STOP_NAME": "Dandenong Railway Station (Dandenong)", "LONGITUDE": 145.209725 }, "geometry": { "type": "Point", "coordinates": [ 145.20973081608048, -37.989954898692361 ] } },
{ "type": "Feature", "properties": { "STOP_ID": "22251", "LATITUDE": -38.040408, "STOP_NAME": "Berwick Railway Station (Berwick)", "LONGITUDE": 145.345715 }, "geometry": { "type": "Point", "coordinates": [ 145.345720791781076, -38.040394869438046 ] } },
{ "type": "Feature", "properties": { "STOP_ID": "22252", "LATITUDE": -38.080614, "STOP_NAME": "Pakenham Railway Station (Pakenham)", "LONGITUDE": 145.486368 }, "geometry": { "type": "Point", "coordinates": [ 145.486373822977555, -38.080600847384936 ] } },
{ "type": "Feature", "properties": { "STOP_ID": "22253", "LATITUDE": -37.756012, "STOP_NAME": "Essendon Railway Station (Essendon)", "LONGITUDE": 144.916198 }, "geometry": { "type": "Point", "coordinates": [ 144.91620380884774, -37.75599879366009 ] } },
{ "type": "Feature", "properties": { "STOP_ID": "22254", "LATITUDE": -37.683049, "STOP_NAME": "Broadmeadows Railway Station (Broadmeadows)", "LONGITUDE": 144.919613 }, "geometry": { "type": "Point", "coordinates": [ 144.919619159658453, -37.683035790923796 ] } },
{ "type": "Feature", "properties": { "STOP_ID": "22257", "LATITUDE": -38.386392, "STOP_NAME": "Sherwood Park Railway Station (Warrnambool)", "LONGITUDE": 142.538871 }, "geometry": { "type": "Point", "coordinates": [ 142.538877211238145, -38.386378735438129 ] } },
{ "type": "Feature", "properties": { "STOP_ID": "43469", "LATITUDE": -37.539716, "STOP_NAME": "Wendouree Railway Station (Wendouree)", "LONGITUDE": 143.820068 }, "geometry": { "type": "Point", "coordinates": [ 143.82007418607833, -37.539702801932769 ] } },
{ "type": "Feature", "properties": { "STOP_ID": "44951", "LATITUDE": -37.424605, "STOP_NAME": "Creswick Railway Station (Creswick)", "LONGITUDE": 143.888124 }, "geometry": { "type": "Point", "coordinates": [ 143.888130061194829, -37.424591726359324 ] } },
{ "type": "Feature", "properties": { "STOP_ID": "44952", "LATITUDE": -37.303141, "STOP_NAME": "Clunes Railway Station (Clunes)", "LONGITUDE": 143.781577 }, "geometry": { "type": "Point", "coordinates": [ 143.781583038721067, -37.303127722008007 ] } },
{ "type": "Feature", "properties": { "STOP_ID": "44953", "LATITUDE": -37.050908, "STOP_NAME": "Maryborough Railway Station (Maryborough)", "LONGITUDE": 143.742402 }, "geometry": { "type": "Point", "coordinates": [ 143.742408251350753, -37.050894792131459 ] } },
{ "type": "Feature", "properties": { "STOP_ID": "45918", "LATITUDE": -37.05924, "STOP_NAME": "Stawell Railway Station (Stawell)", "LONGITUDE": 142.773538 }, "geometry": { "type": "Point", "coordinates": [ 142.773544324025437, -37.059226692547952 ] } },
{ "type": "Feature", "properties": { "STOP_ID": "47482", "LATITUDE": -37.172899, "STOP_NAME": "Talbot Railway Station (Talbot)", "LONGITUDE": 143.70564 }, "geometry": { "type": "Point", "coordinates": [ 143.705646101918632, -37.172885744555828 ] } },
{ "type": "Feature", "properties": { "STOP_ID": "47641", "LATITUDE": -38.215814, "STOP_NAME": "Waurn Ponds Railway Station (Waurn Ponds)", "LONGITUDE": 144.306819 }, "geometry": { "type": "Point", "coordinates": [ 144.306825013499747, -38.215800816819588 ] } },
{ "type": "Feature", "properties": { "STOP_ID": "47642", "LATITUDE": -36.706342, "STOP_NAME": "Epsom Railway Station (Epsom)", "LONGITUDE": 144.32104 }, "geometry": { "type": "Point", "coordinates": [ 144.321046228093223, -36.7063287481229 ] } },
{ "type": "Feature", "properties": { "STOP_ID": "47647", "LATITUDE": -37.872886, "STOP_NAME": "Wyndham Vale Railway Station (Manor Lakes)", "LONGITUDE": 144.608732 }, "geometry": { "type": "Point", "coordinates": [ 144.60873794032409, -37.872872774974951 ] } },
{ "type": "Feature", "properties": { "STOP_ID": "47648", "LATITUDE": -37.832168, "STOP_NAME": "Tarneit Railway Station (Tarneit)", "LONGITUDE": 144.694714 }, "geometry": { "type": "Point", "coordinates": [ 144.69471996021349, -37.832154804315948 ] } },
{ "type": "Feature", "properties": { "STOP_ID": "48804", "LATITUDE": -37.712546, "STOP_NAME": "Cobblebank Railway Station (Cobblebank)", "LONGITUDE": 144.604108 }, "geometry": { "type": "Point", "coordinates": [ 144.604114095054825, -37.712532825730513 ] } },
{ "type": "Feature", "properties": { "STOP_ID": "52011", "LATITUDE": -37.766145, "STOP_NAME": "Caroline Springs Railway Station (Ravenhall)", "LONGITUDE": 144.735748 }, "geometry": { "type": "Point", "coordinates": [ 144.735753840562353, -37.766131792400969 ] } }
]
}
